[
  {"title":"Oriental Pearl Tower", "location": {"lat":31.239689, "lng":121.499755}, "visibility": true},
  {"title":"Shanghai Ocean Aquarium", "location":{"lat":31.240696, "lng":121.501759}, "visibility": true},
  {"title":"Shanghai Disneyland", "location":{"lat":31.145279, "lng":121.657289}, "visibility": true},
  {"title":"The Bund, Shanghai", "location":{"lat":31.240261, "lng":121.490577}, "visibility": true},
  {"title":"Yu Garden", "location":{"lat":31.227236, "lng":121.492094}, "visibility": true},
  {"title":"Shanghai Tower", "location":{"lat":31.233502, "lng":121.505763}, "visibility": true},
  {"title":"Jade Buddha Temple", "location":{"lat":31.241347, "lng":121.445121}, "visibility":true},
  {"title":"Nanjing Road", "location":{"lat":31.234774, "lng":121.474798}, "visibility":true},
  {"title":"Shanghai Museum", "location":{"lat":31.228331, "lng":121.475528}, "visibility":true},
  {"title":"Shanghai French Concession", "location":{"lat":31.207897, "lng":121.468997}, "visibility":true}
]
